,Type,Location,Store,Lat,Long,Group 1,Group 2,Group 3,Group 4,Group 5,Group 6
0,Countdown,Airport,Countdown Airport,-36.99736985,174.7888823,0,1,0,0,0,0
1,Countdown,Auckland City,Countdown Auckland City,-36.84496186,174.77311919999997,0,0,0,0,1,0
2,Countdown,Aviemore Drive,Countdown Aviemore Drive,-36.89887827,174.9065699,0,0,0,1,0,0
3,Countdown,Birkenhead,Countdown Birkenhead,-36.81111802,174.72487759999999,0,0,0,0,0,1
4,Countdown,Blockhouse Bay,Countdown Blockhouse Bay,-36.92291876,174.70235209999998,1,0,0,0,0,0
5,Countdown,Botany Downs,Countdown Botany Downs,-36.92972626,174.9110718,0,1,0,1,0,0
6,Countdown,Browns Bay,Countdown Browns Bay,-36.71714479,174.74727719999998,0,0,0,0,0,1
7,Countdown,Glenfield,Countdown Glenfield,-36.78148813,174.72342619999998,0,0,0,0,0,1
8,Countdown,Greenlane,Countdown Greenlane,-36.88916156,174.79350369999997,0,0,0,0,1,0
9,Countdown,Grey Lynn,Countdown Grey Lynn,-36.85144346,174.73187190000002,0,0,0,0,1,0
10,Countdown,Grey Lynn Central,Countdown Grey Lynn Central,-36.86311836,174.73856669999998,0,0,0,0,1,0
11,Countdown,Hauraki Corner,Countdown Hauraki Corner,-36.79667981,174.7781249,0,0,0,0,0,1
12,Countdown,Henderson,Countdown Henderson,-36.88089456,174.63322769999996,0,0,1,0,0,0
13,Countdown,Hobsonville,Countdown Hobsonville,-36.79748845,174.6487257,0,0,1,0,0,0
14,Countdown,Howick,Countdown Howick,-36.89585201,174.9335377,0,0,0,1,0,0
15,Countdown,Kelston,Countdown Kelston,-36.90955497,174.6638042,0,0,1,0,0,0
16,Countdown,Lincoln Road,Countdown Lincoln Road,-36.8568778,174.63251259999998,0,0,1,0,0,0
17,Countdown,Lynfield,Countdown Lynfield,-36.92514077,174.7239957,1,0,0,0,0,0
18,Countdown,Lynmall,Countdown Lynmall,-36.90687152,174.6850146,1,0,1,0,0,0
19,Countdown,Mairangi Bay,Countdown Mairangi Bay,-36.73941255,174.7540551,0,0,0,0,0,1
20,Countdown,Mangere East,Countdown Mangere East,-36.9657908,174.825346,0,1,0,0,0,0
21,Countdown,Mangere Mall,Countdown Mangere Mall,-36.96987802,174.80112019999999,0,1,0,0,0,0
22,Countdown,Manukau Mall,Countdown Manukau Mall,-36.99174967,174.8831931,0,1,0,0,0,0
23,Countdown,Manurewa,Countdown Manurewa,-37.01734442,174.86510969999998,0,1,0,0,0,0
24,Countdown,Meadowbank,Countdown Meadowbank,-36.87610706,174.8289359,0,0,0,0,1,0
25,Countdown,Meadowlands,Countdown Meadowlands,-36.9132518,174.929465,0,0,0,1,0,0
26,Countdown,Milford,Countdown Milford,-36.77197217,174.76661769999998,0,0,0,0,0,1
27,Countdown,Mt Eden,Countdown Mt Eden,-36.87718131,174.7523352,1,0,0,0,1,0
28,Countdown,Mt Roskill,Countdown Mt Roskill,-36.90203359,174.7356996,1,0,0,0,1,0
29,Countdown,Mt Wellington,Countdown Mt Wellington,-36.9093147,174.837989,0,0,0,1,0,0
30,Countdown,Newmarket,Countdown Newmarket,-36.8705446,174.7754093,0,0,0,0,1,0
31,Countdown,Northcote,Countdown Northcote,-36.80035237,174.74553380000003,0,0,0,0,0,1
32,Countdown,Northwest,Countdown Northwest,-36.81879206,174.6129291,0,0,1,0,0,0
33,Countdown,Onehunga,Countdown Onehunga,-36.92249969,174.78380239999998,1,0,0,0,0,0
34,Countdown,Pakuranga,Countdown Pakuranga,-36.91284146,174.8714299,0,0,0,1,0,0
35,Countdown,Papakura,Countdown Papakura,-37.06390487,174.9447236,0,1,0,0,0,0
36,Countdown,Papatoetoe,Countdown Papatoetoe,-36.97039494,174.862111,0,1,0,0,0,0
37,Countdown,Ponsonby,Countdown Ponsonby,-36.8584399,174.74913859999998,0,0,0,0,1,0
38,Countdown,Pt Chevalier,Countdown Pt Chevalier,-36.86957431,174.7105595,1,0,0,0,1,0
39,Countdown,St Johns,Countdown St Johns,-36.87888192,174.8548393,0,0,0,1,0,0
40,Countdown,St Lukes,Countdown St Lukes,-36.88336862,174.7347459,1,0,0,0,1,0
41,Countdown,Sunnynook,Countdown Sunnynook,-36.75907026,174.74069409999998,0,0,0,0,0,1
42,Countdown,Sylvia Park,Countdown Sylvia Park,-36.91713855,174.84182019999997,0,1,0,1,0,0
43,Countdown,Takanini,Countdown Takanini,-37.04764284,174.9279243,0,1,0,0,0,0
44,Countdown,Takapuna,Countdown Takapuna,-36.79125414,174.76620559999998,0,0,0,0,0,1
45,Countdown,Te Atatu,Countdown Te Atatu,-36.84209292,174.65423810000001,0,0,1,0,0,0
46,Countdown,Te Atatu South,Countdown Te Atatu South,-36.86472278,174.64762919999998,0,0,1,0,0,0
47,Countdown,Three Kings,Countdown Three Kings,-36.90796057,174.7559072,1,0,0,0,1,0
48,Countdown,Victoria Street West,Countdown Victoria Street West,-36.84853355,174.76485119999998,0,0,0,0,1,0
49,Countdown Metro,Halsey Street,Countdown Metro Halsey Street,-36.84358106,174.75780659999998,0,0,0,0,0,1
50,Distribution Centre,Auckland,Distribution Centre Auckland,-36.94904179,174.8080123,0,1,0,0,0,0
51,FreshChoice,Glen Eden,FreshChoice Glen Eden,-36.91087436,174.6545496,0,0,1,0,0,0
52,FreshChoice,Half Moon Bay,FreshChoice Half Moon Bay,-36.88106607,174.9002827,0,0,0,1,0,0
53,FreshChoice,Mangere Bridge,FreshChoice Mangere Bridge,-36.94250829,174.7869875,1,0,0,0,0,0
54,FreshChoice,Otahuhu,FreshChoice Otahuhu,-36.94480584,174.8431184,0,1,0,0,0,0
55,FreshChoice,Ranui,FreshChoice Ranui,-36.86353948,174.6015834,0,0,1,0,0,0
56,SuperValue,Avondale,SuperValue Avondale,-36.89776863,174.69741000000002,1,0,0,0,0,0
57,SuperValue,Flatbush,SuperValue Flatbush,-36.97676671,174.8972267,0,1,0,1,0,0
58,SuperValue,Palomino,SuperValue Palomino,-36.88287566,174.6161793,0,0,1,0,0,0
59,SuperValue,Papakura,SuperValue Papakura,-37.06606311,174.9556975,0,1,0,0,0,0
60,SuperValue,Titirangi,SuperValue Titirangi,-36.93739048,174.65729840000003,0,0,1,0,0,0
